locations_id	geonames_id	locations_name_modern	locations_name_in_edition	locations_modern_state	locations_modern_province	locations_lat	locations_lng	locations_ll_combined	locations_further_annotation
leipzig_DE_gid_2879139	2879139	Leipzig	Leipzig	Germany	Saxony	51.33962	12.37129	51.33962, 12.37129	NULL
augsburg_DE_gid_2954172	2954172	Augsburg	Augsburg	Germany	Bavaria	48.37154	10.89851	48.37154,10.89851	NULL
bamberg_DE_gid_2952984	2952984	Bamberg	Bamberg	Germany	Bavaria	49.89873	10.90067	49.89873, 10.90067	NULL
nürnberg_DE_gid_2861650	2861650	Nürnberg	Nürnberg	Germany	Bavaria	49.45421	11.07752	49.45421, 11.07752	NULL
basel_CH_gid_2661604	2661604	Basel	Basel	Switzerland	Basel-City	47.5584	7.57327	47.5584, 7.57327	NULL
strasbourg_FR_gid_2973783	2973783	Strasbourg	Strasbourg	France	Alsace-Champagne-Ardenne-Lorraine	48.58342	7.74296	48.58342, 7.74296	NULL
dresden_DE_gid_2935022	2935022	Dresden	Dresden	Germany	Saxony	51.05089	13.73832	51.05089, 13.73832	NULL
frankfurt_am_main_DE_gid_2925533	2925533	Frankfurt am Main	Frankfurt	Germany	Hesse	50.11552	8.68417	50.11552, 8.68417	NULL
köln_DE_gid_2886242	2886242	Köln	Cologne	Germany	North Rhine-Westphalia	50.93333	6.95	50.93333, 6.95	NULL