"Id","locations_name_modern","locations_lat","locations_lng","locations_ll_combined"
"basel_CH_gid_2661604","Basel","47.5584","7.57327","47.5584, 7.57327"
"bologna_IT_gid_3181928","Bologna","44.49381","11.33875","44.49381, 11.33875"
"frankfurt_am_main_DE_gid_2925533","Frankfurt am Main","50.11552","8.68417","50.11552, 8.68417"
"freiburg_DE_gid_2925177","Freiburg im Breisgau","47.9959","7.85222","47.9959, 7.85222"
"mainz_DE_gid_2874225","Mainz","49.98419","8.2791","49.98419, 8.2791"
"rome_IT_gid_3169070","Rome","41.89193","12.51133","41.89193, 12.51133"
"siena_IT_gid_3166548","Siena","43.31822","11.33064","43.31822, 11.33064"
