"Id","geonames_id","locations_name_modern","locations_name_in_edition","locations_modern_state","locations_modern_province","locations_lat","locations_lng","locations_ll_combined","locations_further_annotation"
"aachen_DE_gid_3247449","3247449","Aachen","Aachen","Germany","North Rhine-Westphalia","50.77664","6.08342","50.77664, 6.08342",""
"abbey_saint_martin_de_lile_barbe_FR_gid_2977249","2977249","Abbey Saint-Martin-de-l'Île-Barbe","Abbey Saint-Martin-de-l'Île-Barbe","France","Auvergne-Rhône-Alpes","45.79784","4.83321","45.79784, 4.83321",""
"aberdeen_GB_gid_2657832","2657832","Aberdeen","Aberdeen","United Kingdom","Scotland","57.14369","-2.09814","57.14369, -2.09814",""
"alcalá_de_henares_ES_gid_3130616","3130616","Alcalá de Henares","Alcalá","Spain","Madrid","40.4165","-3.70256","40.4165, -3.70256",""
"altenburg_DE_gid_2957773","2957773","Altenburg","Altenburg","Germany","Thuringia","50.98763","12.43684","50.98763, 12.43684",""
"altomünster_abbey_DE_gid_unknown","Unknown","Altomünster Abbey","Altomünster Abbey","Germany","Bavaria","48.38844","11.2573","48.38844, 11.2573","LL for Birgittakloster"
"amsterdam_NL_gid_2759794","2759794","Amsterdam","Amsterdam","Netherlands","North Holland","52.37403","4.88969","52.37403, 4.88969",""
"anderlecht_BE_gid_2803201","2803201","Anderlecht","Anderlecht","Belgium","Brussels Capital","50.83619","4.31454","50.83619, 4.31454",""
"angoulême_FR_gid_3037598","3037598","Angoulême","Angoulême","France","Aquitaine-Limousin-Poitou-Charentes","45.65","0.15","45.65, 0.15",""
"antwerpen_BE_gid_2803138","2803138","Antwerpen","Antwerpen","Belgium","Flemish","51.21989","4.40346","51.21989, 4.40346",""
"arlon_BE_gid_2803073","2803073","Arlon","Arlon","Belgium","Walloon","49.68333","5.81667","49.68333, 5.81667",""
"arras_FR_gid_3036784","3036784","Arras","prob. Arras","France","Hauts-de-France","50.29301","2.78186","50.29301, 2.78186",""
"augsburg_DE_gid_2954172","2954172","Augsburg","Augsburg","Germany","Bavaria","48.37154","10.89851","48.37154,10.89851",""
"avignon_FR_gid_3035681","3035681","Avignon","Avignon","France","Provence-Alpes-Côte d'Azur","43.94834","4.80892","43.94834, 4.80892",""
"baden_CH_gid_2661646","2661646","Baden","Baden","Switzerland","Aargau","47.47333","8.30592","47.47333, 8.30592",""
"basel_CH_gid_2661604","2661604","Basel","Basel","Switzerland","Basel-City","47.5584","7.57327","47.5584, 7.57327",""
"bayeux_FR_gid_3034483","3034483","Bayeux","Bayeux","France","Normandy","49.27732","-0.7039","49.27732, -0.7039",""
"bergen_op_zoom_NL_gid_2759145","2759145","Bergen op Zoom","Bergen op Zoom","Netherlands","North Brabant","51.495","4.29167","51.495, 4.29167",""
"bern_CH_gid_2661552","2661552","Bern","Bern","Switzerland","Bern","46.94809","7.44744","46.94809, 7.44744",""
"besançon_FR_gid_3033123","3033123","Besançon","Besançon","France","Bourgogne-Franche-Comté","47.24878","6.01815","47.24878, 6.01815",""
"blois_FR_gid_3032213","3032213","Blois","Blois","France","Centre","47.58333","1.33333","47.58333, 1.33333",""
"bologna_IT_gid_3181928","3181928","Bologna","Bologna","Italy","Emilia-Romagna","44.49381","11.33875","44.49381, 11.33875",""
"bonn_DE_gid_2946447","2946447","Bonn","Bonn","Germany","North Rhine-Westphalia","50.73438","7.09548","50.73438, 7.09548",""
"boppard_DE_gid_2946366","2946366","Boppard","Boppard","Germany","Rheinland-Pfalz","50.23085","7.58992","50.23085, 7.58992",""
"bourges_FR_gid_3031005","3031005","Bourges","Bourges","France","Centre","47.08333","2.4","47.08333, 2.4",""
"bourg_en_bresse_FR_gid_3031009","3031009","Bourg-en-Bresse","Bourg-en-Bresse","France","Auvergne-Rhône-Alpes","46.20574","5.2258","46.20574, 5.2258",""
"bratislava_SK_gid_3060972","3060972","Bratislava","Bratislava","Slovakia","Bratislavský","48.14816","17.10674","48.14816, 17.10674",""
"brescia_IT_gid_3181554","3181554","Brescia","Brescia","Italy","Lombardy","45.53558","10.21472","45.53558, 10.21472",""
"bressanone_IT_gid_3181550","3181550","Bressanone","Bressanone (Brixen)","Italy","Trentino-Alto Adige","46.71503","11.65598","46.71503, 11.65598",""
"brugge_BE_gid_2800931","2800931","Brugge","Bruges","Belgium","Flemish","51.20892","3.22424","51.20892, 3.22424",""
"brühl_DE_gid_2943320","2943320","Brühl","","Germany","North Rhine-Westphalia","50.82928","6.90499","50.82928, 6.90499",""
"brussels_BE_gid_2800866","2800866","Brussels","Brussels","Belgium","Brussels Capital","50.85045","4.34878","50.85045, 4.34878",""
"buda_HU_gid_3054667","3054667","Buda","Buda","Hungary","Budapest","47.5","19.03333","47.5, 19.03333",""
"büderich_DE_gid_2942083","2942083","Büderich","Büderich","Germany","North Rhine-Westphalia","51.63","6.57959","51.63, 6.57959",""
"burgos_ES_gid_3127461","3127461","Burgos","Burgos","Spain","Castille and León","42.35022","-3.67527","42.35022, -3.67527",""
"butzbach_DE_gid_2940512","2940512","Butzbach","Butzbach","Germany","Hesse","50.43395","8.67122","50.43395, 8.67122",""
"calais_FR_gid_3029162","3029162","Calais","Calais","France","Hauts-de-France","50.95194","1.85635","50.95194, 1.85635",""
"cambrai_FR_gid_3029030","3029030","Cambrai","Cambrai","France","Hauts-de-France","50.16667","3.23333","50.16667, 3.23333",""
"cambridge_GB_gid_2653941","2653941","Cambridge","Cambridge","United Kingdom","England","52.2","0.11667","52.2, 0.11667",""
"canterbury_GB_gid_2653877","2653877","Canterbury","Canterbury","United Kingdom","England","51.27904","1.07992","51.27904, 1.07992",""
"carpentras_FR_gid_3028542","3028542","Carpentras","Carpentras","France","Provence-Alpes-Côte d'Azur","44.05","5.05","44.05, 5.05",""
"chambéry_FR_gid_3027422","3027422","Chambéry","Chambéry","France","Auvergne-Rhône-Alpes","45.56667","5.93333","45.56667, 5.93333",""
"chartres_FR_gid_3026467","3026467","Chartres","Chartres","France","Centre","48.44685","1.48925","48.44685, 1.48925",""
"chelsea_GB_gid_2653265","2653265","Chelsea","Chelsea","United Kingdom","England","51.48755","-0.16936","51.48755, -0.16936",""
"chemnitz_DE_gid_2940132","2940132","Chemnitz","Chemnitz","Germany","Saxony","50.8357","12.92922","50.8357, 12.92922",""
"city_of_westminster_GB_gid_2634341","2634341","City of Westminster","Westminster","United Kingdom","England","51.5","-0.11667","51.5, -0.11667",""
"cluny_abbey_FR_gid_unknown","Unknown","Cluny Abbey","Cluny Abbey","France","Bourgogne-Franche-Comté","46.43318","4.65845","46.43318, 4.65845","LL for Cluny"
"como_IT_gid_3178229","3178229","Como","Como","Italy","Lombardy","45.80079","9.08065","45.80079, 9.08065",""
"courtebourne_FR_gid_3022927","3022927","Courtebourne","Courtebourne","France","Hauts-de-France","50.79147","1.94752","50.79147, 1.94752","correctly identified -  the castle of Courteborne is being described in COE as situated at the road between Licques and some other place"
"denny_abbey_GB_gid_unknown","Unknown","Denny Abbey","Denny Abbey","United Kingdom","England","52.26553","0.19123","52.26553, 0.19123","LL for Waterbeach, Cambridgeshire"
"dillingen_an_der_donau_DE_gid_2936974","2936974","Dillingen an der Donau","Dillingen","Germany","Bavaria","48.58153","10.49528","48.58153, 10.49528",""
"dole_FR_gid_3021263","3021263","Dole","Dole","France","Bourgogne-Franche-Comté","47.1","5.5","47.1, 5.5",""
"dover_GB_gid_2651048","2651048","Dover","Dover","United Kingdom","England","51.13333","1.3","51.13333, 1.3",""
"dresden_DE_gid_2935022","2935022","Dresden","Dresden","Germany","Saxony","51.05089","13.73832","51.05089, 13.73832",""
"easthampstead_GB_gid_2650428","2650428","Easthampstead","Easthampstead","United Kingdom","England","51.4007","-0.76355","51.4007, -0.76355",""
"emmerich_DE_gid_2930509","2930509","Emmerich","Emmerich","Germany","North-Rhine-Westphalia","51.83933","6.24792","51.83933, 6.24792",""
"ensisheim_FR_gid_3020152","3020152","Ensisheim","Ensisheim","France","Alsace-Champagne-Ardenne-Lorraine","47.86695","7.35212","47.86695, 7.35212",""
"erfurt_DE_gid_2929670","2929670","Erfurt","Erfurt","Germany","Thuringia","50.9787","11.03283","50.9787, 11.03283",""
"ferrara_IT_gid_3177090","3177090","Ferrara","Ferrara","Italy","Emilia-Romagna","44.84346","11.60868","44.84346, 11.60868",""
"florence_IT_gid_3176959","3176959","Florence","Florence","Italy","Tuscany","43.77925","11.24626","43.77925, 11.24626",""
"franeker_NL_gid_2755845","2755845","Franeker","Franeker","Netherlands","Friesland","53.18546","5.54123","53.18546, 5.54123",""
"frankfurt_am_main_DE_gid_2925533","2925533","Frankfurt am Main","Frankfurt","Germany","Hesse","50.11552","8.68417","50.11552, 8.68417",""
"freiburg_DE_gid_2925177","2925177","Freiburg","Freiburg","Germany","Baden-Württemberg","47.9959","7.85222","47.9959, 7.85222",""
"frombork_PL_gid_3099634","3099634","Frombork","","Poland","Warmian-Masurian Voivodeship","54.35766","19.68029","54.35766, 19.68029",""
"gembloux_BE_gid_2797713","2797713","Gembloux","Gembloux","Belgium","Walloon","50.56149","4.69889","50.56149, 4.69889",""
"genève_CH_gid_2660646","2660646","Genève","Geneva","Switzerland","Geneva","46.20222","6.14569","46.20222, 6.14569",""
"genoa_IT_gid_3176219","3176219","Genoa","Genoa","Italy","Liguria","44.4264","8.91519","44.4264, 8.91519",""
"gentilly_FR_gid_3016292","3016292","Gentilly","Gentilly","France","Île-de-France","48.81294","2.3417","48.81294, 2.3417",""
"gent_BE_gid_2797656","2797656","Gent","Ghent","Belgium","Flemish","51.05","3.71667","51.05, 3.71667",""
"glarus_CH_gid_2660594","2660594","Glarus","Glarus","Switzerland","Glarus","47.04057","9.06804","47.04057, 9.06804",""
"glastonbury_abbey_GB_gid_7627243","7627243","Glastonbury Abbey","Glastonbury Abbey","United Kingdom","England","51.14605","-2.71474","51.14605, -2.71474",""
"gniezno_PL_gid_3099112","3099112","Gniezno","Gniezno","Poland","Greater Poland Voivodeship","52.53481","17.58259","52.53481, 17.58259",""
"gorinchem_NL_gid_2755434","2755434","Gorinchem","Gorinchem (Corkum)","Netherlands","South Holland","51.83652","4.97243","51.83652, 4.97243",""
"gotha_DE_gid_2918752","2918752","Gotha","Gotha","Germany","Thuringia","50.94823","10.70193","50.94823, 10.70193",""
"gouda_NL_gid_2755420","2755420","Gouda","Gouda","Netherlands","South Holland","52.01667","4.70833","52.01667, 4.70833",""
"grande_chartreuse_gid_unknown","Unknown","Grande Chartreuse","La Grande Chartreuse, near Grenoble","France","Auvergne-Rhône-Alpes","45.363239","5.793583","45.363239, 5.793583","LL from GeoHack"
"grandson_CH_gid_2660529","2660529","Grandson","Grandson","Switzerland","Vaud","46.80946","6.646","46.80946, 6.646",""
"greenwich_GB_gid_2647937","2647937","Greenwich","Greenwich","United Kingdom","England","51.47785","-0.01176","51.47785, -0.01176",""
"groningen_NL_gid_2755251","2755251","Groningen","Groningen","Netherlands","Groningen","53.21917","6.56667","53.21917, 6.56667",""
"haarlem_NL_gid_2755003","2755003","Haarlem","Haarlem","Netherlands","North Holland","52.38084","4.63683","52.38084, 4.63683",""
"halsteren_NL_gid_2754922","2754922","Halsteren","Halsteren","Netherlands","North Brabant","51.52834","4.26785","51.52834, 4.26785",""
"hambach_castle_DE_gid_unknown","Unknown","Schloss Hambach","Hambach","Germany","North Rhine-Westphalia","50.89903","6.44452","50.89903, 6.44452","cf. http://de.wikipedia.org/wiki/Schloss_Hambach"
"hammes_castle_FR_gid_unknown","Unknown","Hammes // Hammes castle","Hammes // Hammes castle","France","Hauts-de-France","50.88178","1.84338","50.88178, 1.84338","LL for Hames-Boucres"
"hampton_court_palace_GB_gid_7627255","7627255","Hampton Court Palace","Hampton Court Palace","United Kingdom","England","51.40309","-0.33697","51.40309, -0.33697",""
"heidelberg_DE_gid_2907911","2907911","Heidelberg","Heidelberg","Germany","Baden-Württemberg","49.40768","8.69079","49.40768, 8.69079",""
"holyrood_palace_in_edinburgh_GB_gid_unknown","Unknown","Holyrood Palace in Edinburgh","Holyrood Palace","United Kingdom","Scotland","55.9526083","-3.1718239","55.9526083, -3.1718239","LL for Palace of Holyrood House, Edinburgh"
"houtem_BE_gid_2795269","2795269","Houtem","Houtem","Belgium","Flemish","51.01077","2.60946","51.01077, 2.60946",""
"ingolstadt_DE_gid_2895992","2895992","Ingolstadt","Ingolstadt","Germany","Bavaria","48.76508","11.42372","48.76508, 11.42372",""
"innsbruck_AT_gid_2775220","2775220","Innsbruck","Innsbruck","Austria","Tyrol","47.26266","11.39454","47.26266, 11.39454",""
"jena_DE_gid_2895044","2895044","Jena","Jena","Germany","Thuringia","50.92878","11.5899","50.92878, 11.5899",""
"kloster_ottobeuren_DE_gid_8030045","8030045","Ottobeuren","Ottobeuren","Germany","Bavaria","47.9413","10.29971","47.9413, 10.29971",""
"koblenz_DE_gid_2886946","2886946","Koblenz","Koblenz","Germany","Rheinland-Pfalz","50.35357","7.57884","50.35357, 7.57884",""
"köln_DE_gid_2886242","2886242","Köln","Cologne","Germany","North Rhine-Westphalia","50.93333","6.95","50.93333, 6.95",""
"konstanz_DE_gid_2885679","2885679","Konstanz","Konstanz","Germany","Baden-Württemberg","47.66033","9.17582","47.66033, 9.17582",""
"kortrijk_BE_gid_2794055","2794055","Kortrijk","Courtrai","Belgium","Flemish","50.82803","3.26487","50.82803, 3.26487",""
"kostelec_nad_labem_CZ_gid_3073151","3073151","Kostelec nad Labem","Kostelec","Czech Republic","Central Bohemia","50.22653","14.58552","50.22653, 14.58552","place correctly identified, see vita of Sslechta"
"kraków_PL_gid_3094802","3094802","Kraków","Cracow","Poland","Lesser Poland Voivodeship","50.06143","19.93658","50.06143, 19.93658",""
"kroměříž_CZ_gid_3072649","3072649","Kroměříž","Kroměříž","Czech Republic","Zlínský Kraj","49.29785","17.39312","49.29785, 17.39312",""
"lambeth_GB_gid_6545250","6545250","Lambeth","Lambeth","United Kingdom","England","51.49635","-0.11152","51.49635, -0.11152",""
"landbeach_GB_gid_6284113","6284113","Landbeach","Landbeach","United Kingdom","England","52.26448","0.16226","52.26448, 0.16226",""
"langenargen_DE_gid_2881263","2881263","Langenargen","Langenargen","Germany","Baden-Württemberg","47.59858","9.54163","47.59858, 9.54163",""
"leeuwarden_NL_gid_2751792","2751792","Leeuwarden","Leeuwarden","Netherlands","Friesland","53.20139","5.80859","53.20139, 5.80859",""
"leiden_NL_gid_2751773","2751773","Leiden","Leiden","Netherlands","South Holland","52.15833","4.49306","52.15833, 4.49306",""
"leipzig_DE_gid_2879139","2879139","Leipzig","Leipzig","Germany","Saxony","51.33962","12.37129","51.33962, 12.37129",""
"lens_st._croix_BE_gid_unknown","Unknown","Lens St. Croix","Lens St. Croix","Belgium","Walloon Region","50.51894","5.23284","50.51894, 5.23284","LL for Huy"
"leuven_BE_gid_2792482","2792482","Leuven","Louvain","Belgium","Flemish","50.87959","4.70093","50.87959, 4.70093",""
"liège_BE_gid_2792413","2792413","Liège","Liège","Belgium","Walloon","50.63373","5.56749","50.63373, 5.56749",""
"linz_AT_gid_2772400","2772400","Linz","Linz","Austria","Upper Austria","48.30639","14.28611","48.30639, 14.28611",""
"lisbon_PT_gid_2267057","2267057","Lisbon","Lisbon","Portugal","Lisbon","38.71667","-9.13333","38.71667, -9.13333",""
"lochau_DE_gid_2876645","2876645","Lochau","Lochau","Germany","Saxony-Anhalt","51.39738","12.05303","51.39738, 12.05303","place correctly identified, cf. Vita of Spalatinus"
"london_GB_gid_2643743","2643743","London","London","United Kingdom","England","51.50853","-0.12574","51.50853, -0.12574",""
"lopsen_monastery_NL_gid_unknown","Unknown","Monastery Lopsen","Lopsen","Netherlands","South Holland","52.18","4.46944","52.18, 4.46944","this is the Augustinian priory of Hieronymusdal in Oegstgeest near Leiden// LL for Oegstgeest"
"lübeck_DE_gid_2875601","2875601","Lübeck","Lübeck","Germany","Schleswig-Holstein","53.86893","10.68729","53.86893, 10.68729",""
"lützel_abbey_FR_gid_11071524","11071524","Lützel Abbey","Lützel Abbey","France","Alsace-Champagne-Ardenne-Lorraine","47.42122","7.24608","47.42122, 7.24608",""
"lyon_FR_gid_2996944","2996944","Lyon","Lyon","France","Auvergne-Rhône-Alpes","45.74846","4.84671","45.74846, 4.84671",""
"mainz_DE_gid_2874225","2874225","Mainz","Mainz","Germany","Rheinland-Pfalz","49.98419","8.2791","49.98419, 8.2791",""
"manoir_la_cour_des_pins_FR_gid_unknown","Unknown","Manoir la Cour-des-Pins","Château des Pins bei La Flèche","France","Pays de la Loire","47.69815","-0.07553","47.69815, -0.07553","PoB of Lazare de Baif, LL for La Fléche"
"marburg_an_der_lahn_DE_gid_2873759","2873759","Marburg an der Lahn","Marburg // Marburg/Lahn","Germany","Hesse","50.80904","8.77069","50.80904, 8.77069",""
"mechelen_BE_gid_2791537","2791537","Mechelen","Mechelen","Belgium","Flemish","51.02574","4.47762","51.02574, 4.47762",""
"metz_FR_gid_2994160","2994160","Metz","Metz","France","Alsace-Champagne-Ardenne-Lorraine","49.11911","6.17269","49.11911, 6.17269",""
"middelburg_NL_gid_2750896","2750896","Middelburg","Middelburg","Netherlands","Zeeland","51.5","3.61389","51.5, 3.61389",""
"milano_IT_gid_3173435","3173435","Milano","Milan","Italy","Lombardy","45.46427","9.18951","45.46427, 9.18951",""
"monastery_bois_saint_martin_BE_gid_unknown","Unknown","Monastery Bois-Saint-Martin //  St Maartensbos","Bois-Saint-Martin //  St Maartensbos","Belgium","Flemish","50.80371","3.82541","50.80371, 3.82541","LL for Sint-Martens-Lierde (new name for the monastery, see http://home.scarlet.be/lierde/stenake1.htm"
"monastery_hugshofen_FR_gid_unknown","Unknown","Monastery Hugshofen","Monastery Hugshofen","France","Alsace-Champagne-Ardenne-Lorraine","48.3494","7.2828","48.3494, 7.2828","LL for Honcourt Abbey [Geonames]"
"montbéliard_FR_gid_2992938","2992938","Montbéliard","Montbéliard","France","Bourgogne-Franche-Comté","47.51667","6.8","47.51667, 6.8",""
"montpellier_FR_gid_2992166","2992166","Montpellier","Montpellier","France","Languedoc-Roussillon-Midi-Pyrénées","43.61092","3.87723","43.61092, 3.87723",""
"more_palace_GB_gid_unknown","Unknown","The More Palace","The More Palace","United Kingdom","England","51.6295","-0.43412","51.6295, -0.43412","LL for Moor Park"
"mulhouse_FR_gid_2991214","2991214","Mulhouse","Mulhouse","France","Alsace-Champagne-Ardenne-Lorraine","47.75","7.33333","47.75, 7.33333",""
"munich_DE_gid_2867714","2867714","Munich","München // Munich","Germany","Bavaria","48.13743","11.57549","48.13743, 11.57549",""
"murano_IT_gid_3172456","3172456","Murano","Murano","Italy","Veneto","45.45857","12.35683","45.45857, 12.35683",""
"mussy_sur_seine_FR_gid_2991095","2991095","Mussy-sur-Seine","Mussy","France","Alsace-Champagne-Ardenne-Lorraine","47.97791","4.49743","47.97791, 4.49743",""
"napoli_IT_gid_3172394","3172394","Napoli","Naples","Italy","Campania","40.85631","14.24641","40.85631, 14.24641",""
"nozeroy_FR_gid_2989871","2989871","Nozeroy","Nozeroy","France","Bourgogne-Franche-Comté","46.77457","6.03636","46.77457, 6.03636",""
"nürnberg_DE_gid_2861650","2861650","Nürnberg","Nürnberg","Germany","Bavaria","49.45421","11.07752","49.45421, 11.07752",""
"ordingen_BE_gid_2789640","2789640","Ordingen","Ordingen","Belgium","Flanders","50.8132","5.23499","50.8132, 5.23499",""
"orléans_FR_gid_2989317","2989317","Orléans","Orléans","France","Centre","47.90289","1.90389","47.90289, 1.90389",""
"otford_GB_gid_2640860","2640860","Otford","Otford","United Kingdom","England","51.31283","0.19046","51.31283, 0.19046",""
"oxford_GB_gid_2640729","2640729","Oxford","Oxford","United Kingdom","England","51.75222","-1.25596","51.75222, -1.25596",""
"padova_IT_gid_3171728","3171728","Padova","Padua","Italy","Veneto","45.40797","11.88586","45.40797, 11.88586",""
"palencia_ES_gid_3114531","3114531","Palencia","Palencia","Spain","Castille and León","42.00955","-4.52406","42.00955, -4.52406",""
"paris_FR_gid_2988507","2988507","Paris","Paris","France","Île-de-France","48.85341","2.3488","48.85341, 2.3488",""
"passau_DE_gid_2855328","2855328","Passau","Passau","Germany","Bavaria","48.5665","13.43122","48.5665, 13.43122",""
"perugia_IT_gid_3171180","3171180","Perugia","Perugia","Italy","Umbria","43.1122","12.38878","43.1122, 12.38878",""
"piotrków_trybunalski_PL_gid_3088972","3088972","Piotrków Trybunalski","Piotrkow","Poland","Łódź Voivodeship","51.40547","19.70321","51.40547, 19.70321",""
"porrentruy_CH_gid_2659171","2659171","Porrentruy","Porrentruy","Switzerland","Jura","47.41533","7.07522","47.41533, 7.07522",""
"prague_CZ_gid_3067696","3067696","Prague","Prague","Czech Republic","Hlavní Mesto Praha","50.08804","14.42076","50.08804, 14.42076",""
"płock_PL_gid_3088825","3088825","Płock","Płock","Poland","Masovian Voivodeship","52.54682","19.70638","52.54682, 19.70638",""
"regensburg_DE_gid_2849483","2849483","Regensburg","Regensburg","Germany","Bavaria","49.01513","12.10161","49.01513, 12.10161",""
"reggio_nell'emilia_IT_gid_3169522","3169522","Reggio nell'Emilia","Reggio","Italy","Emilia-Romagna","44.69825","10.63125","44.69825, 10.63125","place correctly identified, see Art. 'Steuco, Agostino' in Handbuch Gelehrtenkultur. Vol. 1"
"rochester_GB_gid_2639268","2639268","Rochester","Rochester","United Kingdom","England","51.38764","0.50546","51.38764, 0.50546",""
"rome_IT_gid_3169070","3169070","Rome","Rome","Italy","Latium","41.89193","12.51133","41.89193, 12.51133",""
"saint_bel_castle_FR_gid_unknown","Unknown","Saint-Bel Castle","Saint-Bel","France","Auvergne-Rhône-Alpes","45.811363","4.601599","45.811363, 4.601599","See Allen IX, p. 111: 'the castle of St. Bel (18 kil. from Lyons) from which he writes to Erasmus, belonged to the abbots of Savigny' // place correctly identified, see Wikipedia for Saint-Bel"
"saint_germain_des_près_FR_gid_6693610","6693610","Saint-Germain-des-Près","Saint-Germain-des-Près","France","Île-de-France","48.85377","2.33331","48.85377, 2.33331",""
"saint_omer_FR_gid_2977845","2977845","Saint-Omer","Saint-Omer","France","Hauts-de-France","50.75","2.25","50.75, 2.25",""
"salamanca_ES_gid_3111108","3111108","Salamanca","Salamanca","Spain","Castille and León","40.96882","-5.66388","40.96882, -5.66388",""
"schneeberg_DE_gid_2837470","2837470","Schneeberg","Schneeberg","Germany","Saxony","50.59465","12.64139","50.59465, 12.64139",""
"sélestat_FR_gid_2975233","2975233","Sélestat","Sélestat","France","Alsace-Champagne-Ardenne-Lorraine","48.26667","7.45","48.26667, 7.45",""
"sevilla_ES_gid_2510911","2510911","Sevilla","Seville // prob. Seville","Spain","Andalusia","37.38283","-5.97317","37.38283, -5.97317",""
"siena_IT_gid_3166548","3166548","Siena","Siena","Italy","Tuscany","43.31822","11.33064","43.31822, 11.33064",""
"sion_abbey_NL_gid_unknown","Unknown","Sion Abbey","Sion Abbey","Netherlands","South Holland","52.01417","4.325","52.01417, 4.325","LL for Sion"
"sopron_HU_gid_3045190","3045190","Sopron","Sopron","Hungary","Győr-Moson-Sopron","47.68501","16.59049","47.68501, 16.59049",""
"speyer_DE_gid_2830582","2830582","Speyer","Speyer","Germany","Rheinland-Pfalz","49.32083","8.43111","49.32083, 8.43111",""
"steinheim_castle_DE_gid_unknown","Unknown","Schloss Steinheim","Steinheim","Germany","Hesse","50.11298","8.90734","50.11298, 8.90734","this is Schloss Steinheim near Mainz //  LL for Steinheim am Main [Geonames]"
"steyn_monastery_NL_gid_unknown","Unknown","Steyn Monastery","Steyn","Netherlands","South Holland","52.00333","4.78194","52.00333, 4.78194","LL for Stein // refers to the Steyn Monastery"
"strasbourg_FR_gid_2973783","2973783","Strasbourg","Strasbourg","France","Alsace-Champagne-Ardenne-Lorraine","48.58342","7.74296","48.58342, 7.74296",""
"stuttgart_DE_gid_2825297","2825297","Stuttgart","Stuttgart","Germany","Baden-Württemberg","48.78232","9.17702","48.78232, 9.17702",""
"st_amand_abbey_FR_gid_unknown","Unknown","Saint-Amand Abbey","Saint-Amand Abbey","France","Hauts-de-France","50.44718","3.43076","50.44718, 3.43076","LL for Saint-Amand-les-Eaux"
"st_augustin_lès_thérouanne_abbey_FR_gid_unknown","Unknown","Saint-Augustin-lès-Thérouanne Abbey","Saint-Augustin-lès-Thérouanne Abbey","France","Hauts-de-France","50.63871","2.39876","50.63871, 2.39876","LL for Aire-sur-la-Lys"
"st_hubert_abbey_BE_gid_unknown","Unknown","Saint-Hubert Abbey","Saint-Hubert Abbey","Belgium","Wallonia","50.02668","5.37401","50.02668, 5.37401","LL for Saint-Hubert"
"st_séverin_abbey_FR_gid_unknown","Unknown","Saint Séverin Abbey of Château Landon","Saint Séverin Abbey of Château Landon","France","Île-de-France","48.14721","2.69754","48.14721, 2.69754","LL for Château Landon"
"st_sulpice_abbey_FR_gid_unknown","Unknown","Saint Sulpice Abbey","Saint Sulpice Abbey","France","Auvergne-Rhône-Alpes","45.89341","5.59736","45.89341, 5.59736","LL for Thézillieu"
"the_hague_NL_gid_2747373","2747373","The Hague","The Hague","Netherlands","South Holland","52.07667","4.29861","52.07667, 4.29861",""
"torgau_DE_gid_2821807","2821807","Torgau","Torgau","Germany","Saxony","51.56016","12.99617","51.56016, 12.99617",""
"toulouse_FR_gid_2972315","2972315","Toulouse","Toulouse","France","Languedoc-Roussillon-Midi-Pyrénées","43.60426","1.44367","43.60426, 1.44367",""
"tournai_BE_gid_2785341","2785341","Tournai","Tournai","Belgium","Walloon","50.60715","3.38932","50.60715, 3.38932",""
"tournehem_sur_la_hem_FR_gid_2972235","2972235","Tournehem-sur-la-Hem","Tournehem","France","Hauts-de-France","50.8","2.05","50.8, 2.05","LL for Tournehem-sur-la-Hem"
"trier_DE_gid_2821164","2821164","Trier","Trier","Germany","Rheinland-Pfalz","49.75565","6.63935","49.75565, 6.63935",""
"trzebiatów_PL_gid_3083145","3083145","Trzebiatów","Trzebiatów","Poland","West Pomeranian Voivodeship","54.06147","15.26475","54.06147, 15.26475",""
"tübingen_DE_gid_2820860","2820860","Tübingen","Tübingen","Germany","Baden-Württemberg","48.52266","9.05222","48.52266, 9.05222",""
"überlingen_DE_gid_2820577","2820577","Überlingen","Überlingen","Germany","Baden-Württemberg","47.76977","9.17136","47.76977, 9.17136",""
"valladolid_ES_gid_3106672","3106672","Valladolid","Valladolid","Spain","Castille and León","41.65518","-4.72372","41.65518, -4.72372",""
"veere_NL_gid_2745739","2745739","Veere","Veere","Netherlands","Zeeland","51.54833","3.66667","51.54833, 3.66667",""
"venice_IT_gid_3164603","3164603","Venice","Venice","Italy","Veneto","45.43713","12.33265","45.43713, 12.33265",""
"vic_sur_seille_FR_gid_2969364","2969364","Vic-sur-Seille","Vic","France","Alsace-Champagne-Ardenne-Lorraine","48.78204","6.53081","48.78204, 6.53081","place correctly identified, see http://books.google.ie/books?id=lx5Xdi9jATMC&lpg=PA65&ots=nbDoFy2gam&dq=Claudius%20CANTIUNCULA%20Vic&hl=de&pg=PA65#v=onepage&q=Claudius%20CANTIUNCULA%20Vic&f=false"
"vienna_AT_gid_2761369","2761369","Vienna","Vienna","Austria","Vienna","48.20849","16.37208","48.20849, 16.37208",""
"vollenhove_NL_gid_2745333","2745333","Vollenhove","Vollenhove","Netherlands","Overijssel","52.68083","5.95417","52.68083, 5.95417",""
"waldburg_castle_DE_gid_unknown","Unknown","Waldburg Castle","Waldburg Castle","Germany","Baden-Württemberg","47.7571","9.71342","47.7571, 9.71342","LL for Waldburg"
"weinsberg_DE_gid_2812158","2812158","Weinsberg","Weinsberg","Germany","Baden-Württemberg","49.15127","9.28762","49.15127, 9.28762",""
"wesel_DE_gid_2810678","2810678","Wesel","Wesel","Germany","North-Rhine-Westphalia","51.6669","6.62037","51.6669, 6.62037",""
"winchester_GB_gid_2633858","2633858","Winchester","Winchester","United Kingdom","England","51.06513","-1.3187","51.06513, -1.3187",""
"windsor_castle_GB_gid_6287215","6287215","Windsor Castle","Windsor Castle","United Kingdom","England","51.48365","-0.60502","51.48365, -0.60502",""
"wittenberg_DE_gid_7303020","7303020","Wittenberg","Wittenberg","Germany","Saxony-Anhalt","51.8661","12.64973","51.8661, 12.64973",""
"woking_GB_gid_2633709","2633709","Woking","Woking","United Kingdom","England","51.31903","-0.55893","51.31903, -0.55893",""
"woodstock_GB_gid_2633618","2633618","Woodstock","Woodstock","United Kingdom","England","51.8485","-1.35132","51.8485, -1.35132",""
"worms_DE_gid_2806142","2806142","Worms","Worms","Germany","Rheinland-Pfalz","49.63278","8.35916","49.63278, 8.35916",""
"wrocław_PL_gid_3081368","3081368","Wrocław","Wrocław","Poland","Lower Silesian Voivodeship","51.1","17.03333","51.1, 17.03333",""
"würzburg_DE_gid_2805615","2805615","Würzburg","Würzburg","Germany","Bavaria","49.79391","9.95121","49.79391, 9.95121",""
"zeitz_DE_gid_2804922","2804922","Zeitz","[Zeitz]","Germany","Saxony-Anhalt","51.04962","12.1369","51.04962, 12.1369",""
"znojmo_CZ_gid_3061344","3061344","Znojmo","[Znojmo]","Czech Republic","South Moravian Region","48.8555","16.0488","48.8555, 16.0488",""
"zürich_CH_gid_2657896","2657896","Zürich","Zürich","Switzerland","Zurich","47.36667","8.55","47.36667, 8.55",""
"zwolle_NL_gid_2743477","2743477","Zwolle","Zwolle","Netherlands","Overijssel","52.5125","6.09444","52.5125, 6.09444",""
