locations_id	geonames_id	locations_name_modern	locations_name_in_edition	locations_modern_state	locations_modern_province	locations_lat	locations_lng	locations_ll_combined	locations_further_annotation
leipzig_DE_gid_2879139	2879139	Leipzig	Leipzig	Germany	Saxony	51.33962	12.37129	51.33962, 12.37129	NULL
nürnberg_DE_gid_2861650	2861650	Nürnberg	Nürnberg	Germany	Bavaria	49.45421	11.07752	49.45421, 11.07752	NULL
freiburg_DE_gid_2925177	2925177	Freiburg	Freiburg	Germany	Baden-Württemberg	47.9959	7.85222	47.9959, 7.85222	NULL
strasbourg_FR_gid_2973783	2973783	Strasbourg	Strasbourg	France	Alsace-Champagne-Ardenne-Lorraine	48.58342	7.74296	48.58342, 7.74296	NULL
sélestat_FR_gid_2975233	2975233	Sélestat	Sélestat	France	Alsace-Champagne-Ardenne-Lorraine	48.26667	7.45	48.26667, 7.45	NULL