"Id"	"geonames_id"	"locations_name_modern"	"locations_name_in_edition"	"locations_modern_state"	"locations_modern_province"	"locations_lat"	"locations_lng"	"locations_ll_combined"	"locations_further_annotation"
"altenburg_DE_gid_2957773"	"2957773"	"Altenburg"	"Altenburg"	"Germany"	"Thuringia"	"50.98763"	"12.43684"	"50.98763, 12.43684"	NULL
"ansbach_DE_gid_2955936"	"2955936"	"Ansbach"	"Ansbach"	"Germany"	"Bavaria"	"49.30481"	"10.5931"	"49.30481,10.5931"	NULL
"antwerpen_BE_gid_2803138"	"2803138"	"Antwerpen"	"Antwerpen"	"Belgium"	"Flemish"	"51.21989"	"4.40346"	"51.21989, 4.40346"	NULL
"arberg_DE_gid_2955697"	"2955697"	"Arberg"	"Arberg bei Feuchtwangen (Mittelfranken)"	"Germany"	"Bavaria"	"49.14428"	"10.61722"	"49.14428, 10.61722"	NULL
"augsburg_DE_gid_2954172"	"2954172"	"Augsburg"	"Augsburg"	"Germany"	"Bavaria"	"48.37154"	"10.89851"	"48.37154,10.89851"	NULL
"bad_windsheim_DE_gid_2953314"	"2953314"	"Bad Windsheim"	"Windsheim"	"Germany"	"Bavaria"	"49.50274"	"10.41539"	"49.50274, 10.41539"	NULL
"bamberg_DE_gid_2952984"	"2952984"	"Bamberg"	"Bamberg"	"Germany"	"Bavaria"	"49.89873"	"10.90067"	"49.89873, 10.90067"	NULL
"basel_CH_gid_2661604"	"2661604"	"Basel"	"Basel"	"Switzerland"	"Basel-City"	"47.5584"	"7.57327"	"47.5584, 7.57327"	NULL
"bergen_abbey_DE_gid_unknown"	"unknown"	"Bergen Abbey"	"Kloster Bergen"	"Germany"	"Bavaria"	"48.73218"	"11.18709"	"48.73218, 11.18709"	"LL for Neuburg an der Donau - that is were the Monastery was located"
"biberach_DE_gid_2949423"	"2949423"	"Biberach"	"Biberach"	"Germany"	"Baden-Württemberg"	"48.09345"	"9.79053"	"48.09345, 9.79053"	NULL
"bologna_IT_gid_3181928"	"3181928"	"Bologna"	"Bologna"	"Italy"	"Emilia-Romagna"	"44.49381"	"11.33875"	"44.49381, 11.33875"	NULL
"bressanone_IT_gid_3181550"	"3181550"	"Bressanone"	"Bressanone (Brixen)"	"Italy"	"Trentino-Alto Adige"	"46.71503"	"11.65598"	"46.71503, 11.65598"	NULL
"dresden_DE_gid_2935022"	"2935022"	"Dresden"	"Dresden"	"Germany"	"Saxony"	"51.05089"	"13.73832"	"51.05089, 13.73832"	NULL
"eichstätt_DE_gid_2932069"	"2932069"	"Eichstätt"	"Eichstätt"	"Germany"	"Bavaria"	"48.88854"	"11.19675"	"48.88854, 11.19675"	NULL
"erfurt_DE_gid_2929670"	"2929670"	"Erfurt"	"Erfurt"	"Germany"	"Thuringia"	"50.9787"	"11.03283"	"50.9787, 11.03283"	NULL
"ferrara_IT_gid_3177090"	"3177090"	"Ferrara"	"Ferrara"	"Italy"	"Emilia-Romagna"	"44.84346"	"11.60868"	"44.84346, 11.60868"	NULL
"frankfurt_am_main_DE_gid_2925533"	"2925533"	"Frankfurt am Main"	"Frankfurt a. M. // Frankfurt"	"Germany"	"Hesse"	"50.11552"	"8.68417"	"50.11552, 8.68417"	NULL
"freiburg_DE_gid_2925177"	"2925177"	"Freiburg"	"Freiburg i. Br."	"Germany"	"Baden-Württemberg"	"47.9959"	"7.85222"	"47.9959, 7.85222"	NULL
"geisenfeld_abbey_DE_gid_unknown"	"unknown"	"Geisenfeld Abbey"	"Kloster Geisenfeld"	"Germany"	"Bavaria"	"48.683256"	"11.613472"	"48.683256, 11.613472"	"LL for Kloster Geisenfeld (GeoHack)"
"heidelberg_DE_gid_2907911"	"2907911"	"Heidelberg"	"Heidelberg"	"Germany"	"Baden-Württemberg"	"49.40768"	"8.69079"	"49.40768, 8.69079"	NULL
"herford_DE_gid_2906121"	"2906121"	"Herford"	"Herford"	"Germany"	"North Rhine-Westphalia"	"52.11457"	"8.67343"	"52.11457, 8.67343"	NULL
"ingolstadt_DE_gid_2895992"	"2895992"	"Ingolstadt"	"Ingolstadt"	"Germany"	"Bavaria"	"48.76508"	"11.42372"	"48.76508, 11.42372"	NULL
"kaisheim_DE_gid_2893983"	"2893983"	"Kaisheim"	"Kaisheim"	"Germany"	"Bavaria"	"48.76751"	"10.79639"	"48.76751, 10.79639"	NULL
"kloster_schamhaupten_DE_gid_unknown"	"unknown"	"Monastery Schamhaupten"	"Kloster Schamhaupten"	"Germany"	"Bavaria"	"48.91497"	"11.59863"	"48.91497, 11.59863"	NULL
"köln_DE_gid_2886242"	"2886242"	"Köln"	"Cologne"	"Germany"	"North Rhine-Westphalia"	"50.93333"	"6.95"	"50.93333, 6.95"	NULL
"laufenburg_DE_gid_2880121"	"2880121"	"Laufenburg"	"Laufenberg"	"Germany"	"Baden-Württemberg"	"47.56512"	"8.06045"	"47.56512, 8.06045"	NULL
"leipzig_DE_gid_2879139"	"2879139"	"Leipzig"	"Leipzig"	"Germany"	"Saxony"	"51.33962"	"12.37129"	"51.33962, 12.37129"	NULL
"leuven_BE_gid_2792482"	"2792482"	"Leuven"	"Löwen"	"Belgium"	"Flemish"	"50.87959"	"4.70093"	"50.87959, 4.70093"	NULL
"lindau_DE_gid_2877550"	"2877550"	"Lindau"	"Lindau"	"Germany"	"Bavaria"	"47.54612"	"9.68431"	"47.54612, 9.68431"	NULL
"mainz_DE_gid_2874225"	"2874225"	"Mainz"	"Mainz"	"Germany"	"Rheinland-Pfalz"	"49.98419"	"8.2791"	"49.98419, 8.2791"	NULL
"mirandola_IT_gid_3173370"	"3173370"	"Mirandola"	"Mirandola"	"Italy"	"Emilia-Romagna"	"44.88515"	"11.06902"	"44.88515, 11.06902"	NULL
"monastery_rebdorf_DE_gid_unknown"	"Unknown"	"Monastery Rebdorf"	"Kloster Rebdorf"	"Germany"	"Bavaria"	"48.888103"	"11.167556"	"48.888103, 11.167556"	"LL for Kloster Rebdorf (GeoHack)"
"neuenstein_DE_gid_2865557"	"2865557"	"Neuenstein"	"Neuenstein"	"Germany"	"Baden-Württemberg"	"49.2049"	"9.58"	"49.2049, 9.58"	"gemeint ist das Schloss Neuenstein, von welchem der Graf schreibt"
"neunhof_DE_gid_2864443"	"2864443"	"Neunhof"	"Neunhof"	"Germany"	"Bavaria"	"49.55495"	"11.23017"	"49.55495, 11.23017"	NULL
"neustadt_an_der_aisch_DE_gid_2864057"	"2864057"	"Neustadt an der Aisch"	"Neustadt an der Aisch"	"Germany"	"Bavaria"	"49.57953"	"10.61126"	"49.57953, 10.61126"	NULL
"nördlingen_DE_gid_2861914"	"2861914"	"Nördlingen"	"Nördlingen"	"Germany"	"Bavaria"	"48.85122"	"10.48868"	"48.85122, 10.48868"	NULL
"nürnberg_DE_gid_2861650"	"2861650"	"Nürnberg"	"Nürnberg"	"Germany"	"Bavaria"	"49.45421"	"11.07752"	"49.45421, 11.07752"	NULL
"nürnberg_klarissenkloster_st_klara_DE_gid_unknown"	"unknown"	"Klarissenkloster St. Klara"	"Nürnberg, Klarakloster"	"Germany"	"Bavaria"	"49.448611"	"11.079444"	"49.448611, 11.079444"	"LL for Klarissenkloster St. Klara (Nürnberg) (GeoHack)"
"padova_IT_gid_3171728"	"3171728"	"Padova"	"Padua"	"Italy"	"Veneto"	"45.40797"	"11.88586"	"45.40797, 11.88586"	NULL
"pavia_IT_gid_3171366"	"3171366"	"Pavia"	"Pavia"	"Italy"	"Lombardy"	"45.19205"	"9.15917"	"45.19205, 9.15917"	NULL
"pfunds_AT_gid_2768905"	"2768905"	"Pfunds"	"Pfunds"	"Austria"	"Tyrol"	"46.96667"	"10.55"	"46.96667, 10.55"	NULL
"ravensburg_DE_gid_2849802"	"2849802"	"Ravensburg"	"Ravensburg"	"Germany"	"Baden-Württemberg"	"47.78198"	"9.61062"	"47.78198, 9.61062"	NULL
"rome_IT_gid_3169070"	"3169070"	"Rome"	"Rom // Rome"	"Italy"	"Latium"	"41.89193"	"12.51133"	"41.89193, 12.51133"	NULL
"schweinfurt_DE_gid_2834498"	"2834498"	"Schweinfurt"	"Schweinfurt in Franken"	"Germany"	"Bavaria"	"50.04937"	"10.22175"	"50.04937, 10.22175"	NULL
"sélestat_FR_gid_2975233"	"2975233"	"Sélestat"	"Schlettstadt"	"France"	"Alsace-Champagne-Ardenne-Lorraine"	"48.26667"	"7.45"	"48.26667, 7.45"	NULL
"speyer_DE_gid_2830582"	"2830582"	"Speyer"	"Speier"	"Germany"	"Rheinland-Pfalz"	"49.32083"	"8.43111"	"49.32083, 8.43111"	NULL
"strasbourg_FR_gid_2973783"	"2973783"	"Strasbourg"	"Straßburg // Strasbourg"	"France"	"Alsace-Champagne-Ardenne-Lorraine"	"48.58342"	"7.74296"	"48.58342, 7.74296"	NULL
"stuttgart_DE_gid_2825297"	"2825297"	"Stuttgart"	"Stuttgart"	"Germany"	"Baden-Württemberg"	"48.78232"	"9.17702"	"48.78232, 9.17702"	NULL
"tübingen_DE_gid_2820860"	"2820860"	"Tübingen"	"Tübingen"	"Germany"	"Baden-Württemberg"	"48.52266"	"9.05222"	"48.52266, 9.05222"	NULL
"ulm_DE_gid_2820256"	"2820256"	"Ulm"	"Ulm"	"Germany"	"Baden-Württemberg"	"48.39841"	"9.99155"	"48.39841, 9.99155"	NULL
"venice_IT_gid_3164603"	"3164603"	"Venice"	"Venedig"	"Italy"	"Veneto"	"45.43713"	"12.33265"	"45.43713, 12.33265"	NULL
"vienna_AT_gid_2761369"	"2761369"	"Vienna"	"Wien"	"Austria"	"Vienna"	"48.20849"	"16.37208"	"48.20849, 16.37208"	NULL
"weinsberg_DE_gid_2812158"	"2812158"	"Weinsberg"	"Weinsberg"	"Germany"	"Baden-Württemberg"	"49.15127"	"9.28762"	"49.15127, 9.28762"	NULL
"wittenberg_DE_gid_7303020"	"7303020"	"Wittenberg"	"Wittenberg"	"Germany"	"Saxony-Anhalt"	"51.8661"	"12.64973"	"51.8661, 12.64973"	NULL
