locations_id	geonames_id	locations_name_modern	locations_name_in_edition	locations_modern_state	locations_modern_province	locations_lat	locations_lng	locations_ll_combined	locations_further_annotation
donauwörth_DE_gid_2936253	2936253	Donauwörth	Donauwörth	Germany	Bavaria	48.71804	10.7793	48.71804, 10.7793	NULL
nürnberg_DE_gid_2861650	2861650	Nürnberg	Nürnberg	Germany	Bavaria	49.45421	11.07752	49.45421, 11.07752	NULL
valladolid_ES_gid_3106672	3106672	Valladolid	Valladolid	Spain	Castille and León	41.65518	-4.72372	41.65518, -4.72372	NULL
burgos_ES_gid_3127461	3127461	Burgos	Burgos	Spain	Castille and León	42.35022	-3.67527	42.35022, -3.67527	NULL
basel_CH_gid_2661604	2661604	Basel	Basel	Switzerland	Basel-City	47.5584	7.57327	47.5584, 7.57327	NULL
altenburg_DE_gid_2957773	2957773	Altenburg	Altenburg	Germany	Thuringia	50.98763	12.43684	50.98763, 12.43684	NULL
venice_IT_gid_3164603	3164603	Venice	Venice	Italy	Veneto	45.43713	12.33265	45.43713, 12.33265	NULL
mainz_st_viktorsberg_DE_gid_unknown	Unknown	Mainz-St. Viktorsberg	Mainz-St. Viktorsberg	Germany	Rheinland-Pfalz	49.98419	8.2791	49.98419, 8.2791	This place refers to the place where Franz Beheme had his 'Offizien', thaht is near the 'St. Viktor in Weisenau', the latter being a part of Mainz // LL for Mainz