"Id","geonames_id","locations_name_modern","locations_name_in_edition","locations_modern_state","locations_modern_province","locations_lat","locations_lng","locations_ll_combined","locations_further_annotation"
"amboise_FR_gid_3037902","3037902","Amboise","Amboise","France","Centre","47.41249","0.98266","47.41249, 0.98266",""
"antwerpen_BE_gid_2803138","2803138","Antwerpen","Antwerpen","Belgium","Flemish","51.21989","4.40346","51.21989, 4.40346",""
"ardres_FR_gid_3037113","3037113","Ardres","Ardres","France","Hauts-de-France","50.85786","1.98168","50.85786, 1.98168",""
"autun_FR_gid_3035883","3035883","Autun","Autun","France","Bourgogne-Franche-Comté","46.95","4.3","46.95, 4.3",""
"avignon_FR_gid_3035681","3035681","Avignon","Avignon","France","Provence-Alpes-Côte d'Azur","43.94834","4.80892","43.94834, 4.80892",""
"basel_CH_gid_2661604","2661604","Basel","Basel","Switzerland","Basel-City","47.5584","7.57327","47.5584, 7.57327",""
"blois_FR_gid_3032213","3032213","Blois","Blois","France","Centre","47.58333","1.33333","47.58333, 1.33333",""
"bouchain_FR_gid_3031380","3031380","Bouchain","[Bouchain :CK]","France","Hauts-de-France","50.28519","3.31491","50.28519, 3.31491",""
"bourges_FR_gid_3031005","3031005","Bourges","Bourges","France","Centre","47.08333","2.4","47.08333, 2.4",""
"brussels_BE_gid_2800866","2800866","Brussels","Brussels","Belgium","Brussels Capital","50.85045","4.34878","50.85045, 4.34878",""
"cambridge_GB_gid_2653941","2653941","Cambridge","Cambridge","United Kingdom","England","52.2","0.11667","52.2, 0.11667",""
"carpentras_FR_gid_3028542","3028542","Carpentras","Carpentras","France","Provence-Alpes-Côte d'Azur","44.05","5.05","44.05, 5.05",""
"châtillon_sur_seine_FR_gid_3026046","3026046","Châtillon-sur-Seine","[Châtillon-sur-Seine :CK]","France","Bourgogne-Franche-Comté","47.85851","4.57375","47.85851, 4.57375",""
"dijon_FR_gid_3021372","3021372","Dijon","Dijon","France","Bourgogne-Franche-Comté","47.31667","5.01667","47.31667, 5.01667",""
"élincourt_FR_gid_3020293","3020293","Élincourt","[Élincourt :CK]","France","Hauts-de-France","50.04475","3.37125","50.04475, 3.37125",""
"florence_IT_gid_3176959","3176959","Florence","Florence","Italy","Tuscany","43.77925","11.24626","43.77925, 11.24626",""
"fontainebleau_palace_FR_gid_unknown","Unknown","Palace of Fontainebleau","Palace of Fontainebleau","France","Île-de-France","48.4","2.7","48.4, 2.7","LL for the city Fontainebleau"
"fontenay_le_comte_FR_gid_3017921","3017921","Fontenay","Fontenay-le-Comte","France","Pays de la Loire","46.46667","-0.81667","46.46667, -0.81667",""
"frankfurt_am_main_DE_gid_2925533","2925533","Frankfurt am Main","Frankfurt","Germany","Hesse","50.11552","8.68417","50.11552, 8.68417",""
"freiburg_DE_gid_2925177","2925177","Freiburg","Freiburg","Germany","Baden-Württemberg","47.9959","7.85222","47.9959, 7.85222",""
"genoa_IT_gid_3176219","3176219","Genoa","Genoa","Italy","Liguria","44.4264","8.91519","44.4264, 8.91519",""
"köln_DE_gid_2886242","2886242","Köln","Cologne","Germany","North Rhine-Westphalia","50.93333","6.95","50.93333, 6.95",""
"la_villeneuve_sur_vingeanne_FR_gid_3005488","3005488","La Villeneuve-sur-Vingeanne","Villeneuve-en-Bourgogne","France","Bourgogne-Franche-Comté","47.56314","5.42329","47.56314, 5.42329","Correctly identified as La Villeneuve-sur-Vingeanne"
"leuven_BE_gid_2792482","2792482","Leuven","Louvain","Belgium","Flemish","50.87959","4.70093","50.87959, 4.70093",""
"liesse_notre_dame_FR_gid_2998460","2998460","Liesse-Notre-Dame ","[Liesse-Notre-Dame :CK]","France","Hauts-de-France","49.61667","3.8","49.61667, 3.8",""
"london_GB_gid_2643743","2643743","London","London","United Kingdom","England","51.50853","-0.12574","51.50853, -0.12574",""
"lyon_FR_gid_2996944","2996944","Lyon","Lyon","France","Auvergne-Rhône-Alpes","45.74846","4.84671","45.74846, 4.84671",""
"marly_la_ville_FR_gid_2995653","2995653","Marly-la-Ville","Marly","France","Île-de-France","49.08201","2.50347","49.08201, 2.50347",""
"mechelen_BE_gid_2791537","2791537","Mechelen","Mechelen","Belgium","Flemish","51.02574","4.47762","51.02574, 4.47762",""
"milano_IT_gid_3173435","3173435","Milano","Milan","Italy","Lombardy","45.46427","9.18951","45.46427, 9.18951",""
"montpellier_FR_gid_2992166","2992166","Montpellier","Montpellier","France","Languedoc-Roussillon-Midi-Pyrénées","43.61092","3.87723","43.61092, 3.87723",""
"mussy_sur_seine_FR_gid_2991095","2991095","Mussy-sur-Seine","Mussy","France","Alsace-Champagne-Ardenne-Lorraine","47.97791","4.49743","47.97791, 4.49743",""
"noyon_FR_gid_2989877","2989877","Noyon","Noyon","France","Hauts-de-France","49.58333","3","49.58333, 3",""
"nuits_saint_georges_FR_gid_2989837","2989837","Nuits-Saint-Georges","Nuits","France","Bourgogne-Franche-Comté","47.13683","4.949","47.13683, 4.949","Correctly identified as Nuits-Saint-Georges, cf. Répértoire p. 162"
"orléans_FR_gid_2989317","2989317","Orléans","Orléans","France","Centre","47.90289","1.90389","47.90289, 1.90389",""
"padova_IT_gid_3171728","3171728","Padova","Padua","Italy","Veneto","45.40797","11.88586","45.40797, 11.88586",""
"paris_FR_gid_2988507","2988507","Paris","Paris","France","Île-de-France","48.85341","2.3488","48.85341, 2.3488",""
"pierrelatte_FR_gid_2987259","2987259","Pierrelatte","Pierrelatte","France","Auvergne-Rhône-Alpes","44.37756","4.70198","44.37756, 4.70198",""
"pontfaverger_moronvilliers_FR_gid_2986186","2986186","Pontfaverger-Moronvilliers","[Pontfaverger-Moronvilliers :CK]","France","Alsace-Champagne-Ardenne-Lorraine","49.29702","4.31657","49.29702, 4.31657",""
"reims_FR_gid_2984114","2984114","Reims","Reims","France","Alsace-Champagne-Ardenne-Lorraine","49.25","4.03333","49.25, 4.03333",""
"rodez_FR_gid_2983154","2983154","Rodez","Rodez","France","Languedoc-Roussillon-Midi-Pyrénées","44.35258","2.57338","44.35258, 2.57338",""
"rome_IT_gid_3169070","3169070","Rome","Rome","Italy","Latium","41.89193","12.51133","41.89193, 12.51133",""
"romorantin_lanthenay_FR_gid_2982967","2982967","Romorantin-Lanthenay","Romorantin","France","Centre","47.36667","1.75","47.36667, 1.75",""
"rouen_FR_gid_2982652","2982652","Rouen","Rouen","France","Normandy","49.44313","1.09932","49.44313, 1.09932",""
"saint_germain_en_laye_FR_gid_2979783","2979783","Saint-Germain-en-Laye","Saint-Germain-en-Laye","France","Île-de-France","48.9","2.08333","48.9, 2.08333",""
"saint_thierry_FR_gid_2976774","2976774","Saint-Thierry","[Saint-Thierry-lès-Reims :CK]","France","Alsace-Champagne-Ardenne-Lorraine","49.30546","3.96565","49.30546, 3.96565",""
"sankt_gallen_CH_gid_2658822","2658822","Sankt Gallen","St Gallen","Switzerland","Saint Gallen","47.42391","9.37477","47.42391, 9.37477",""
"toulouse_FR_gid_2972315","2972315","Toulouse","Toulouse","France","Languedoc-Roussillon-Midi-Pyrénées","43.60426","1.44367","43.60426, 1.44367",""
"tournon_sur_rhône_FR_gid_2972214","2972214","Tournon-sur-Rhône","Tournon","France","Rhône-Alpes","45.06667","4.83333","45.06667, 4.83333","Correctly identified as Tournon-sur-Rhône"
"troyes_FR_gid_2971549","2971549","Troyes","Troyes","France","Alsace-Champagne-Ardenne-Lorraine","48.3","4.08333","48.3, 4.08333",""
"venice_IT_gid_3164603","3164603","Venice","Venice","Italy","Veneto","45.43713","12.33265","45.43713, 12.33265",""
